[
  {
    "title": "Cyber Security Engineer / Software Developer",
    "company": "Connectify Inc.",
    "hours": "Full-Time",
    "startedAt": "09-2022",
    "endedAt": "04-2023",
    "current": false,
    "address": "Novi Sad, Serbia"
  },
  {
    "title": "Cyber Security Engineer",
    "company": "GG CyberSec Systems",
    "hours": "Part-Time",
    "startedAt": "02-2022",
    "endedAt": "11-2022",
    "current": false,
    "address": "Novi Sad, Serbia"
  },
  {
    "title": "Cyber Security Analyst",
    "company": "StackPath LLC / Orange Cloud D.O.O.",
    "hours": "Full-Time",
    "startedAt": "08-2021",
    "endedAt": "09-2022",
    "current": false,
    "address": "Belgrade, Serbia"
  },
  {
    "title": "Software Developer",
    "company": "ActiveCollab (A51 D.O.O.)",
    "hours": "Full-Time",
    "startedAt": "01-2020",
    "endedAt": "08-2021",
    "current": false,
    "address": "Novi Sad, Serbia"
  },
  {
    "title": "Web Developer",
    "company": "Vivify Ideas D.O.O.",
    "hours": "Full-Time",
    "startedAt": "01-2019",
    "endedAt": "07-2019",
    "current": false,
    "address": "Novi Sad, Serbia"
  },
  {
    "title": "System Administrator / Tech Support",
    "company": "E-Gimnazija / Media Networks D.O.O.",
    "hours": "Full-Time",
    "startedAt": "05-2017",
    "endedAt": "09-2018",
    "current": false,
    "address": "Novi Sad, Serbia"
  },
  {
    "title": "Photographer",
    "company": "WeRunNS",
    "hours": "Full-Time",
    "startedAt": "03-2016",
    "endedAt": "05-2017",
    "current": false,
    "address": "Novi Sad, Serbia"
  }
]
